name,phone,latitude,longitude
Priya Sharma,+919876543210,26.8467,80.9462
Rahul Verma,+919876543211,26.8470,80.9465
Anita Gupta,+919876543212,26.8455,80.9458
Vikram Singh,+919876543213,26.8480,80.9470
Meera Patel,+919876543214,26.8462,80.9455
Suresh Kumar,+919876543215,26.8475,80.9468
Kavita Devi,+919876543216,26.8460,80.9460
Ajay Yadav,+919876543217,26.8490,80.9475
Sunita Mishra,+919876543218,26.8458,80.9452
Deepak Tiwari,+919876543219,26.8485,80.9472
